country,state,city,station,last_update,latitude,longitude,pollutant_id,pollutant_min,pollutant_max,pollutant_avg
India,Arunachal_Pradesh,Naharlagun,"Naharlagun, Naharlagun - APSPCB","18-11-2024 13:00:00",27.103358,93.679645,OZONE,3,3,3
India,Assam,Guwahati,"LGBI Airport, Guwahati - PCBA","18-11-2024 13:00:00",26.10887,91.589544,OZONE,18,74,27
India,Bihar,Muzaffarpur,"Muzaffarpur Collectorate, Muzaffarpur - BSPCB","18-11-2024 13:00:00",26.1209,85.3647,OZONE,29,47,31
India,Bihar,Patna,"DRM Office Danapur, Patna - BSPCB","18-11-2024 13:00:00",25.586562,85.043586,OZONE,1,10,4
India,Chhattisgarh,Raipur,"Siltara Phase-II, Raipur - CECB","18-11-2024 13:00:00",21.371751,81.664929,OZONE,3,6,3
India,Delhi,Delhi,"Alipur, Delhi - DPCC","18-11-2024 13:00:00",28.815329,77.153010,OZONE,5,124,23
India,Bihar,Hajipur,"Industrial Area, Hajipur - BSPCB","18-11-2024 13:00:00",25.697189,85.245900,OZONE,22,122,122
India,Bihar,Manguraha,"Forest Rest House, Manguraha - BSPCB","18-11-2024 13:00:00",27.308328,84.531742,OZONE,9,10,10
India,Chhattisgarh,Bhilai,"Hathkhoj, Bhilai - CECB","18-11-2024 13:00:00",21.224231,81.408350,OZONE,2,95,33
India,Chhattisgarh,Chhal,"Nawapara SECL Colony, Chhal - CECB","18-11-2024 13:00:00",22.118125,83.140608,OZONE,3,192,55
India,Chhattisgarh,Kunjemura,"OP Jindal School, Kunjemura - CECB","18-11-2024 13:00:00",22.126650,83.483212,OZONE,2,50,17
India,Andhra_Pradesh,Anantapur,"Gulzarpet, Anantapur - APPCB","18-11-2024 13:00:00",14.675886,77.593027,OZONE,18,39,28
India,Chhattisgarh,Bhilai,"32Bungalows, Bhilai - CECB","18-11-2024 13:00:00",21.194815,81.314770,OZONE,1,113,29
India,Assam,Nagaon,"Christianpatty, Nagaon - PCBA","18-11-2024 13:00:00",26.349082,92.68449,OZONE,2,17,14
India,Delhi,Delhi,"DTU, Delhi - CPCB","18-11-2024 13:00:00",28.7500499,77.1112615,OZONE,23,25,24
India,Gujarat,Ahmedabad,"SVPI Airport Hansol, Ahmedabad - IITM","18-11-2024 13:00:00",23.076793,72.627874,OZONE,2,32,17
India,Gujarat,Ahmedabad,"Sardar Vallabhbhai Patel Stadium, Ahmedabad - IITM","18-11-2024 13:00:00",23.043070,72.562968,OZONE,9,48,26
India,Gujarat,Gandhinagar,"GIFT City, Gandhinagar - IITM","18-11-2024 13:00:00",23.163798,72.677768,OZONE,3,44,25
India,Delhi,Delhi,"Shadipur, Delhi - CPCB","18-11-2024 13:00:00",28.6514781,77.1473105,OZONE,12,44,29
India,Delhi,Delhi,"Sonia Vihar, Delhi - DPCC","18-11-2024 13:00:00",28.710508,77.249485,OZONE,10,87,29
India,Gujarat,Ahmedabad,"Maninagar, Ahmedabad - GPCB","18-11-2024 13:00:00",23.002657,72.591912,OZONE,2,62,41
India,Gujarat,Ahmedabad,"Raikhad, Ahmedabad - IITM","18-11-2024 13:00:00",23.020509,72.579261,OZONE,10,110,51
India,Haryana,Faridabad,"New Industrial Town, Faridabad - HSPCB","18-11-2024 13:00:00",28.39072,77.30059,OZONE,14,299,19
India,Haryana,Ambala,"Patti Mehar, Ambala - HSPCB","18-11-2024 13:00:00",30.379589,76.778328,OZONE,1,23,1
India,Delhi,Delhi,"Nehru Nagar, Delhi - DPCC","18-11-2024 13:00:00",28.567890,77.250515,OZONE,10,223,48
India,Delhi,Delhi,"Jahangirpuri, Delhi - DPCC","18-11-2024 13:00:00",28.732820,77.170633,OZONE,6,53,12
India,Haryana,Gurugram,"Sector-51, Gurugram - HSPCB","18-11-2024 13:00:00",28.4227,77.0667,OZONE,18,87,78
India,Karnataka,Belgaum,"Ramteerth Nagar, Belgaum - KSPCB","18-11-2024 13:00:00",15.888653,74.541751,OZONE,19,21,21
India,Haryana,Panipat,"Sector-18, Panipat - HSPCB","18-11-2024 13:00:00",29.432304,76.972765,OZONE,30,30,30
India,Haryana,"Yamuna Nagar","Gobind Pura, Yamuna Nagar - HSPCB","18-11-2024 13:00:00",30.1480566,77.2893471,OZONE,12,18,15
India,Karnataka,Bengaluru,"Shivapura_Peenya, Bengaluru - KSPCB","18-11-2024 13:00:00",13.0246342,77.5080115,OZONE,25,26,26
India,Karnataka,Bengaluru,"Silk Board, Bengaluru - KSPCB","18-11-2024 13:00:00",12.917348,77.622813,OZONE,1,20,4
India,Karnataka,Koppal,"Diwator Nagar, Koppal - KSPCB","18-11-2024 13:00:00",15.347630,76.181767,OZONE,24,51,32
India,Karnataka,Chikkamagaluru,"Kalyana Nagara, Chikkamagaluru - KSPCB","18-11-2024 13:00:00",13.328028,75.797056,OZONE,13,54,18
India,Karnataka,Shivamogga,"Vinoba Nagara, Shivamogga - KSPCB","18-11-2024 13:00:00",13.940000,75.555917,OZONE,21,79,43
India,Kerala,Kollam,"Polayathode, Kollam - Kerala PCB","18-11-2024 13:00:00",8.8787,76.6073,OZONE,NA,NA,NA
India,Karnataka,Karwar,"KHB Colony, Karwar - KSPCB","18-11-2024 13:00:00",14.816666,74.141003,CO,8,9,8
India,Haryana,Panchkula,"Sector-6, Panchkula - HSPCB ","18-11-2024 13:00:00",30.7057778,76.8531805555555,OZONE,18,34,26
India,"Madhya Pradesh",Gwalior,"Deen Dayal Nagar, Gwalior - MPPCB","18-11-2024 13:00:00",26.259242,78.216432,OZONE,1,94,38
India,"Madhya Pradesh",Ratlam,"Shasthri Nagar, Ratlam - IPCA Lab","18-11-2024 13:00:00",23.331731,75.045981,SO2,16,17,17
India,Maharashtra,Mumbai,"Chhatrapati Shivaji Intl. Airport (T2), Mumbai - MPCB","18-11-2024 13:00:00",19.10078,72.87462,OZONE,7,8,7
India,Maharashtra,Mumbai,"Deonar, Mumbai - IITM","18-11-2024 13:00:00",19.04946,72.9230,OZONE,1,94,29
India,Maharashtra,Mumbai,"Ghatkopar, Mumbai - BMC","18-11-2024 13:00:00",19.083694,72.920967,OZONE,3,110,29
India,"Madhya Pradesh",Sagar,"Deen Dayal Nagar, Sagar - MPPCB","18-11-2024 13:00:00",23.8640158,78.80289321,CO,22,30,26
India,"Madhya Pradesh",Singrauli,"Suryakiran Bhawan NCL, Singrauli - MPPCB","18-11-2024 13:00:00",24.108970,82.645580,OZONE,6,116,35
India,"Madhya Pradesh",Jabalpur,"Marhatal, Jabalpur - MPPCB","18-11-2024 13:00:00",23.168606,79.932247,OZONE,9,33,14
India,"Madhya Pradesh",Bhopal,"Idgah Hills, Bhopal - MPPCB","18-11-2024 13:00:00",23.264759,77.381568,OZONE,37,111,70
India,"Madhya Pradesh",Indore,"Regional Park, Indore - IMC","18-11-2024 13:00:00",22.6780,75.8559,OZONE,5,17,9
India,Maharashtra,Mumbai,"Byculla, Mumbai - BMC","18-11-2024 13:00:00",18.9767,72.8380,OZONE,1,201,44
India,Maharashtra,Mumbai,"Chembur, Mumbai - MPCB","18-11-2024 13:00:00",19.0364585,72.8954371,OZONE,1,151,45
India,"Madhya Pradesh",Gwalior,"City Center, Gwalior - MPPCB","18-11-2024 13:00:00",26.203442,78.193251,OZONE,17,52,34
India,Maharashtra,Pune,"Hadapsar, Pune - IITM","18-11-2024 13:00:00",18.501793,73.927532,OZONE,NA,NA,NA
India,Odisha,Rourkela,"Raghunathpali, Rourkela - OSPCB","18-11-2024 13:00:00",22.220833,84.809444,OZONE,2,77,25
India,Punjab,Khanna,"Kalal Majra, Khanna - PPCB","18-11-2024 13:00:00","30.736056 ",76.209694,OZONE,9,31,12
India,Punjab,"Mandi Gobindgarh","RIMT University, Mandi Gobindgarh - PPCB","18-11-2024 13:00:00",30.649961,76.331442,OZONE,55,58,57
India,Maharashtra,"Navi Mumbai","Sector-2E Kalamboli, Navi Mumbai - MPCB","18-11-2024 13:00:00",19.02579,73.10297,OZONE,16,97,53
India,Maharashtra,Mumbai,"Siddharth Nagar-Worli, Mumbai - IITM","18-11-2024 13:00:00",19.000083,72.813993,OZONE,3,278,168
India,Odisha,Byasanagar,"Ferro Chrome Colony, Byasanagar - OSPCB","18-11-2024 13:00:00",20.94185,86.11510,OZONE,14,155,155
India,Maharashtra,Mumbai,"Mulund West, Mumbai - MPCB","18-11-2024 13:00:00",19.1750,72.9419,OZONE,7,8,7
India,Maharashtra,Pimpri-Chinchwad,"Thergaon, Pimpri Chinchwad - MPCB","18-11-2024 13:00:00",18.616318,73.765797,OZONE,1,72,33
India,Punjab,Jalandhar,"Civil Line, Jalandhar - PPCB","18-11-2024 13:00:00",31.321907,75.578914,OZONE,8,52,26
India,Rajasthan,Churu,"Subash Chowk, Churu - RSPCB","18-11-2024 13:00:00",28.296139,74.961696,OZONE,25,149,71
India,Rajasthan,Kota,"Nayapura, Kota - RSPCB","18-11-2024 13:00:00",25.196024,75.855668,OZONE,8,102,49
India,Rajasthan,Jhalawar,"Rajlaxmi Nagar, Jhalawar - RSPCB","18-11-2024 13:00:00",24.588397,76.172782,OZONE,2,87,46
India,Rajasthan,Jodhpur,"Digari Kalan, Jodhpur - RSPCB","18-11-2024 13:00:00",26.295810,73.082283,OZONE,9,69,33
India,Rajasthan,Jodhpur,"Mandor, Jodhpur - RSPCB","18-11-2024 13:00:00",26.358805,73.047444,OZONE,38,97,67
India,Rajasthan,Jodhpur,"Samrat Ashok Udhyan, Jodhpur - RSPCB","18-11-2024 13:00:00",26.253384,72.976571,OZONE,40,118,76
India,Rajasthan,Kota,"Dhanmandi, Kota - RSPCB","18-11-2024 13:00:00",25.164090,75.858137,OZONE,4,88,39
India,Rajasthan,Jaipur,"Adarsh Nagar, Jaipur - RSPCB","18-11-2024 13:00:00",26.902909,75.836858,OZONE,37,66,55
India,TamilNadu,Chengalpattu,"Crescent University, Chengalpattu - TNPCB","18-11-2024 13:00:00",12.8777316,80.0834807,OZONE,5,6,6
India,Rajasthan,Ajmer,"Civil Lines,  Ajmer - RSPCB","18-11-2024 13:00:00",26.470859,74.646594,OZONE,11,86,41
India,Rajasthan,"Sri Ganganagar","Old City, Sri Ganganagar - RSPCB","18-11-2024 13:00:00",29.931624,73.864511,OZONE,NA,NA,NA
India,TamilNadu,Gummidipoondi,"Anthoni Pillai Nagar, Gummidipoondi - TNPCB","18-11-2024 13:00:00",13.4127,80.1081,SO2,2,39,13
India,TamilNadu,Tiruchirappalli,"St Joseph College, Tiruchirappalli - TNPCB","18-11-2024 13:00:00",10.830158,78.691849,CO,11,12,12
India,TamilNadu,Tirunelveli,"Municipal Corporation Office, Tirunelveli - TNPCB","18-11-2024 13:00:00",8.728442,77.6962,OZONE,6,7,6
India,TamilNadu,Chennai,"Arumbakkam, Chennai - TNPCB","18-11-2024 13:00:00",13.0664,"80.2112 ",SO2,5,17,10
India,Telangana,Hyderabad,"Kokapet, Hyderabad - TSPCB","18-11-2024 13:00:00",17.393559,78.339194,OZONE,159,159,159
India,Telangana,Hyderabad,"Nacharam_TSIIC IALA, Hyderabad - TSPCB","18-11-2024 13:00:00",17.429398,78.569354,OZONE,17,43,21
India,TamilNadu,Ranipet,"VOC Nagar_SIPCOT, Ranipet - TNPCB","18-11-2024 13:00:00",12.952707,79.30394,OZONE,1,1,1
India,TamilNadu,Thanjavur,"Parisutham Nagar, Thanjavur - TNPCB","18-11-2024 13:00:00",10.7654824,79.1389968,OZONE,4,23,10
India,Telangana,Hyderabad,"IDA Pashamylaram, Hyderabad - TSPCB","18-11-2024 13:00:00",17.5316895,78.218939,OZONE,6,38,16
India,Telangana,Hyderabad,"ECIL Kapra, Hyderabad - TSPCB","18-11-2024 13:00:00",17.470431,78.566959,OZONE,20,47,23
India,TamilNadu,Chennai,"Perungudi, Chennai - TNPCB","18-11-2024 13:00:00",12.9533,80.2357,OZONE,10,13,12
India,Telangana,Hyderabad,"Somajiguda, Hyderabad - TSPCB","18-11-2024 13:00:00",17.417094,78.457437,OZONE,62,74,68
India,Uttar_Pradesh,Lucknow,"Lalbagh, Lucknow - CPCB","18-11-2024 13:00:00",26.8458805,80.9365541,OZONE,46,78,57
India,Uttar_Pradesh,Ghaziabad,"Indirapuram, Ghaziabad - UPPCB","18-11-2024 13:00:00",28.646233,77.358075,OZONE,23,130,56
India,Uttar_Pradesh,Ghaziabad,"Vasundhara, Ghaziabad - UPPCB","18-11-2024 13:00:00",28.6603346,77.3572563,OZONE,3,280,280
India,Uttar_Pradesh,Kanpur,"Nehru Nagar, Kanpur - UPPCB","18-11-2024 13:00:00",26.4703136,80.3229863,CO,24,45,38
India,Uttar_Pradesh,Jhansi,"Shivaji Nagar, Jhansi - UPPCB","18-11-2024 13:00:00",25.4547,78.6039,OZONE,1,11,2
India,Uttar_Pradesh,Kanpur,"FTI Kidwai Nagar, Kanpur - UPPCB","18-11-2024 13:00:00",26.428282,80.327067,OZONE,10,56,23
India,Uttar_Pradesh,Agra,"Sector-3B Avas Vikas Colony, Agra - UPPCB","18-11-2024 13:00:00",27.19412,77.96237,OZONE,1,14,4
India,Uttar_Pradesh,Agra,"Shastripuram, Agra - UPPCB","18-11-2024 13:00:00",27.19862,77.92066,OZONE,1,11,4
India,Uttar_Pradesh,Noida,"Sector - 125, Noida - UPPCB","18-11-2024 13:00:00",28.5447608,77.3231257,OZONE,13,17,15
India,Uttar_Pradesh,Bareilly,"Civil Lines, Bareilly - UPPCB","18-11-2024 13:00:00",28.359581,79.414455,OZONE,18,21,18
India,Uttar_Pradesh,Moradabad,"Buddhi Vihar, Moradabad - UPPCB","18-11-2024 13:00:00",28.83526,78.74460,OZONE,8,26,13
India,Uttar_Pradesh,Firozabad,"Vibhab Nagar, Firozabad - UPPCB","18-11-2024 13:00:00",27.1594,78.3953,OZONE,12,39,14
India,Uttar_Pradesh,Varanasi,"Maldahiya, Varanasi - UPPCB","18-11-2024 13:00:00",25.32393,82.99687,OZONE,1,10,3
India,Uttarakhand,Kashipur,"Govt. Girls Inter College, Kashipur - UKPCB","18-11-2024 13:00:00",29.2124114,78.9611753,OZONE,1,37,6
India,West_Bengal,Asansol,"Mahabir Colliery, Asansol - WBPCB","18-11-2024 13:00:00",23.6181830,87.1057180,OZONE,15,57,36
India,West_Bengal,Durgapur,"Sidhu Kanhu Indoor Stadium, Durgapur - WBPCB","18-11-2024 13:00:00",23.5404352,87.2892225,OZONE,1,44,17
India,West_Bengal,Haldia,"Priyambada Housing Estate, Haldia - WBPCB","18-11-2024 13:00:00",22.06047,88.109737,OZONE,21,64,33
India,West_Bengal,Howrah,"Botanical Garden, Howrah - WBPCB","18-11-2024 13:00:00",22.554954,88.292568,OZONE,3,95,41
India,West_Bengal,Kolkata,"Bidhannagar, Kolkata - WBPCB","18-11-2024 13:00:00",22.58157048,88.41002457,OZONE,23,57,32
India,West_Bengal,Kolkata,"Fort William, Kolkata - WBPCB","18-11-2024 13:00:00",22.556640,88.342674,OZONE,21,38,29
India,West_Bengal,Kolkata,"Rabindra Sarobar, Kolkata - WBPCB","18-11-2024 13:00:00",22.51106,88.35142,OZONE,4,110,46
India,West_Bengal,Siliguri,"Ward-32 Bapupara, Siliguri - WBPCB","18-11-2024 13:00:00",26.6879226,88.4152495,OZONE,17,52,29
India,Andhra_Pradesh,Chittoor,"Gangineni Cheruvu, Chittoor - APPCB","18-11-2024 13:00:00",13.204880,79.097889,OZONE,55,55,55
India,Andhra_Pradesh,Rajamahendravaram,"Anand Kala Kshetram, Rajamahendravaram - APPCB","18-11-2024 13:00:00",16.9872867,81.7363176,OZONE,25,52,36
India,Bihar,"Bihar Sharif","D M Colony, Bihar Sharif - BSPCB","18-11-2024 13:00:00",25.204762,85.514960,OZONE,18,85,31
India,Bihar,Patna,"IGSC Planetarium Complex, Patna - BSPCB","18-11-2024 13:00:00",25.610369,85.132568,OZONE,25,28,26
India,Assam,Guwahati,"Pan Bazaar, Guwahati - PCBA","18-11-2024 13:00:00",26.187500,91.744194,OZONE,16,17,17
India,Bihar,Gaya,"Collectorate, Gaya - BSPCB","18-11-2024 13:00:00",24.7955,84.9994,OZONE,19,21,20
India,Chandigarh,Chandigarh,"Sector-53, Chandigarh - CPCC","18-11-2024 13:00:00",30.719859,76.738637,OZONE,3,71,19
India,Bihar,Arrah,"New DM Office, Arrah - BSPCB","18-11-2024 13:00:00",25.5626095,84.663264,OZONE,2,72,22
India,Assam,Byrnihat,"Central Academy for SFS, Byrnihat - PCBA","18-11-2024 13:00:00",26.071318,91.87488,OZONE,22,140,37
India,Bihar,Bettiah,"Kamalnath Nagar, Bettiah - BSPCB","18-11-2024 13:00:00",26.80365,84.51954,OZONE,19,31,31
India,Gujarat,Ahmedabad,"Chandkheda, Ahmedabad - IITM","18-11-2024 13:00:00",23.107969,72.574648,OZONE,3,81,44
India,Delhi,Delhi,"Pusa, Delhi - DPCC","18-11-2024 13:00:00",28.639652,77.146275,OZONE,2,5,3
India,Delhi,Delhi,"IHBAS, Dilshad Garden, Delhi - CPCB","18-11-2024 13:00:00",28.6811736,77.3025234,OZONE,16,17,17
India,Delhi,Delhi,"ITO, Delhi - CPCB","18-11-2024 13:00:00",28.628624,77.241060,OZONE,16,103,23
India,Chhattisgarh,Milupara,"Govt. Higher Secondary School, Milupara - CECB","18-11-2024 13:00:00",22.1910172,83.5197009,OZONE,2,55,28
India,Chhattisgarh,Raipur,"AIIMS, Raipur - CECB","18-11-2024 13:00:00",21.258815,81.578979,OZONE,1,32,8
India,Delhi,Delhi,"Lodhi Road, Delhi - IITM","18-11-2024 13:00:00",28.588333,77.221667,SO2,20,31,27
India,Gujarat,Ahmedabad,"SAC ISRO Bopal, Ahmedabad - IITM","18-11-2024 13:00:00",23.041137,72.456691,OZONE,4,45,19
India,Delhi,Delhi,"Bawana, Delhi - DPCC","18-11-2024 13:00:00",28.776200,77.051074,OZONE,6,155,26
India,Delhi,Delhi,"Mundka, Delhi - DPCC","18-11-2024 13:00:00",28.684678,77.076574,OZONE,11,86,26
India,Delhi,Delhi,"Patparganj, Delhi - DPCC","18-11-2024 13:00:00",28.623763,77.287209,OZONE,4,166,35
India,Karnataka,Tumakuru,"Thimmalapura, Tumakuru - KSPCB","18-11-2024 13:00:00",13.377516,77.099072,OZONE,5,8,7
India,Karnataka,Bengaluru,"Kasturi Nagar, Bengaluru - KSPCB","18-11-2024 13:00:00",13.003872,77.664217,OZONE,22,54,26
India,Karnataka,Bengaluru,"Sanegurava Halli, Bengaluru - KSPCB","18-11-2024 13:00:00",12.990328,77.5431385,CO,24,50,37
India,Haryana,Hisar,"Urban Estate-II, Hisar - HSPCB","18-11-2024 13:00:00",29.140560,75.744941,OZONE,20,34,22
India,Karnataka,Gadag,"Panchal Nagar, Gadag - KSPCB","18-11-2024 13:00:00",15.411456,75.638133,OZONE,34,62,39
India,Karnataka,Hubballi,"Deshpande Nagar, Hubballi - KSPCB","18-11-2024 13:00:00",15.351773,75.140726,OZONE,16,17,17
India,Karnataka,Hubballi,"Lingaraj Nagar, Hubballi - KSPCB","18-11-2024 13:00:00",15.3714823,75.1160168,OZONE,27,46,35
India,Gujarat,Gandhinagar,"IIPHG Lekawada, Gandhinagar - IITM","18-11-2024 13:00:00",23.243639,72.68994,OZONE,1,133,41
India,Gujarat,Gandhinagar,"Sector-10, Gandhinagar - GPCB","18-11-2024 13:00:00",23.221714,72.654328,OZONE,4,31,13
India,Karnataka,Kalaburagi,"Lal Bahadur Shastri Nagar, Kalaburagi - KSPCB","18-11-2024 13:00:00",17.321993,76.822628,OZONE,48,79,57
India,Haryana,Gurugram,"Vikas Sadan, Gurugram - HSPCB","18-11-2024 13:00:00",28.4501238,77.0263051,OZONE,8,55,34
India,Karnataka,Raichur,"Haji Colony, Raichur - KSPCB","18-11-2024 13:00:00",16.208139,77.348417,CO,113,116,113
India,Karnataka,Dharwad,"Kalabhavan, Dharwad - KSPCB","18-11-2024 13:00:00",15.459706,75.008381,OZONE,21,76,58
India,"Madhya Pradesh",Indore,"Vijay Nagar Scheme-78, Indore - Glenmark","18-11-2024 13:00:00",22.76726,75.88710,SO2,27,29,28
India,Maharashtra,Boisar,"Khaira, Boisar - MPCB","18-11-2024 13:00:00",19.786089,72.757971,OZONE,18,71,35
India,"Madhya Pradesh",Damoh,"Shrivastav Colony, Damoh - MPPCB","18-11-2024 13:00:00",23.81748678,79.446246,CO,22,23,22
India,"Madhya Pradesh",Dewas,"Bhopal Chauraha, Dewas - MPPCB","18-11-2024 13:00:00",22.9682591,76.064118,OZONE,12,105,29
India,"Madhya Pradesh",Katni,"Gole Bazar, Katni - MPPCB","18-11-2024 13:00:00",23.50016,80.23284,OZONE,6,20,10
India,"Madhya Pradesh",Maihar,"Sahilara, Maihar - KJS Cements","18-11-2024 13:00:00",24.2613009,80.7231783,CO,24,41,31
India,Maharashtra,Mumbai,"Bandra Kurla Complex, Mumbai - MPCB","18-11-2024 13:00:00",19.065931,72.862131,OZONE,2,275,32
India,Maharashtra,Kalyan,"Pimpleshwar Mandir, Kalyan - MPCB","18-11-2024 13:00:00",19.192056,72.9585188,OZONE,10,66,20
India,Maharashtra,Kolhapur,"Sinchan Bhavan, Kolhapur - MPCB","18-11-2024 13:00:00",16.7143745,74.2426398,OZONE,7,118,61
India,Maharashtra,Belapur,"CBD Belapur, Belapur - MPCB","18-11-2024 13:00:00",19.0243902,73.0406721,OZONE,2,73,25
India,Maharashtra,Bhiwandi,"Gokul Nagar, Bhiwandi - MPCB","18-11-2024 13:00:00",19.309073,73.057223,OZONE,2,96,35
India,Kerala,Eloor,"Udyogamandal, Eloor - Kerala PCB","18-11-2024 13:00:00",10.073232,76.302765,OZONE,11,14,12
India,"Madhya Pradesh",Sagar,"Civil Lines, Sagar - MPPCB","18-11-2024 13:00:00",23.838586,78.759431,OZONE,NA,NA,NA
India,Maharashtra,Mumbai,"Borivali East, Mumbai - MPCB","18-11-2024 13:00:00",19.2243333,72.8658113,OZONE,9,14,10
India,Maharashtra,"Navi Mumbai","Mahape, Navi Mumbai - MPCB","18-11-2024 13:00:00",19.1135051,73.008978,OZONE,12,29,12
India,Maharashtra,"Navi Mumbai","Nerul, Navi Mumbai - MPCB","18-11-2024 13:00:00",19.008751,73.016620,OZONE,31,57,44
India,Maharashtra,"Navi Mumbai","Sanpada, Navi Mumbai - MPCB","18-11-2024 13:00:00",19.0575752,73.0151367,OZONE,1,59,34
India,Maharashtra,Parbhani,"Masoom Colony, Parbhani - MPCB","18-11-2024 13:00:00",19.265594,76.761463,OZONE,119,119,119
India,Maharashtra,Pimpri-Chinchwad,"Gavalinagar, Pimpri Chinchwad - MPCB","18-11-2024 13:00:00",18.63673,73.82487,OZONE,3,125,54
India,Maharashtra,Nashik,"MIDC Ambad, Nashik - MPCB","18-11-2024 13:00:00",19.950220,73.731480,OZONE,4,88,45
India,Maharashtra,Nashik,"Pandav Nagari, Nashik - MPCB","18-11-2024 13:00:00",19.9591346,73.7788008,OZONE,2,96,49
India,Maharashtra,Nagpur,"Mahal, Nagpur - MPCB","18-11-2024 13:00:00",21.14472,79.107595,OZONE,1,95,44
India,Maharashtra,Nagpur,"Opp GPO Civil Lines, Nagpur - MPCB","18-11-2024 13:00:00",21.152875,79.0517531,OZONE,5,164,69
India,Maharashtra,Pune,"Savitribai Phule Pune University, Pune - MPCB","18-11-2024 13:00:00",18.547056,73.826908,OZONE,1,72,46
India,Maharashtra,Solapur,"Ratandeep Housing Society, Solapur - MPCB","18-11-2024 13:00:00",17.65439,75.90649,OZONE,13,153,53
India,Maharashtra,Mumbai,"Malad West, Mumbai - IITM","18-11-2024 13:00:00",19.19709,72.82204,OZONE,4,115,26
India,Maharashtra,Mumbai,"Colaba, Mumbai - MPCB","18-11-2024 13:00:00",18.910000,72.820000,OZONE,11,11,11
India,Punjab,Rupnagar,"Ratanpura, Rupnagar - Ambuja Cements","18-11-2024 13:00:00",31.0325454,76.5623046,CO,34,77,54
India,Puducherry,Puducherry,"Jawahar Nagar, Puducherry - PPCC","18-11-2024 13:00:00",11.9309,79.8027,OZONE,27,84,27
India,Rajasthan,Hanumangarh,"Housing Board, Hanumangarh - RSPCB","18-11-2024 13:00:00",29.610750,74.283608,OZONE,37,39,38
India,Rajasthan,Jaipur,"Mansarovar Sector-12, Jaipur - RSPCB","18-11-2024 13:00:00",26.843698,75.766894,OZONE,60,147,101
India,Rajasthan,Jaisalmer,"Sadar Bazar, Jaisalmer - RSPCB","18-11-2024 13:00:00",26.912329,70.909168,OZONE,62,119,87
India,Mizoram,Aizawl,"Sikulpuikawn, Aizawl - Mizoram PCB","18-11-2024 13:00:00",23.7176342,92.7192841,OZONE,8,8,2
India,Nagaland,Kohima,"PWD Juction, Kohima - NPCB","18-11-2024 13:00:00",25.6635413,94.0989878,OZONE,7,11,9
India,Rajasthan,Bhiwadi,"RIICO Ind. Area III, Bhiwadi - RSPCB","18-11-2024 13:00:00",28.194909,76.862296,OZONE,8,58,27
India,Odisha,Baripada,"Meher Colony, Baripada - OSPCB","18-11-2024 13:00:00",21.941841,86.728318,OZONE,15,156,156
India,Odisha,Nayagarh,"Dabuna, Nayagarh - OSPCB","18-11-2024 13:00:00",21.847279,85.416905,OZONE,3,50,20
India,Rajasthan,Jaipur,"Shastri Nagar, Jaipur - RSPCB","18-11-2024 13:00:00",26.9502929,75.730943,OZONE,24,35,27
India,Rajasthan,Sikar,"Radhakishan Pura, Sikar - RSPCB","18-11-2024 13:00:00",27.608912,75.153302,OZONE,6,79,41
India,Rajasthan,Udaipur,"Ashok Nagar, Udaipur - RSPCB","18-11-2024 13:00:00",24.5886166,73.6321397,OZONE,6,96,45
India,Telangana,Hyderabad,"Zoo Park, Hyderabad - TSPCB","18-11-2024 13:00:00",17.349694,78.451437,OZONE,17,28,20
India,Tripura,Agartala,"Bardowali, Agartala - Tripura SPCB","18-11-2024 13:00:00",23.8175497,91.2726974,OZONE,3,70,16
India,Uttar_Pradesh,Agra,"Manoharpur, Agra - UPPCB","18-11-2024 13:00:00",27.23711,78.01936,OZONE,1,48,4
India,TamilNadu,Cuddalore,"Semmandalam, Cuddalore - TNPCB","18-11-2024 13:00:00",11.7637683,79.7499835,OZONE,1,2,1
India,TamilNadu,Chennai,"Manali Village, Chennai - TNPCB","18-11-2024 13:00:00",13.1662,80.2584,OZONE,32,39,36
India,TamilNadu,Chennai,"Manali, Chennai - CPCB","18-11-2024 13:00:00",13.164544,80.26285,OZONE,9,21,15
India,Uttar_Pradesh,"Greater Noida","Knowledge Park - III, Greater Noida - UPPCB","18-11-2024 13:00:00",28.47272,77.482000,OZONE,11,126,32
India,Rajasthan,Kota,"Shrinath Puram, Kota - RSPCB","18-11-2024 13:00:00",25.14389,75.821256,OZONE,14,54,43
India,TamilNadu,Nagapattinam,"Velippalayam, Nagapattinam - TNPCB","18-11-2024 13:00:00",10.798548,79.838212,OZONE,23,40,34
India,Telangana,Hyderabad,"Sanathnagar, Hyderabad - TSPCB","18-11-2024 13:00:00",17.4559458,78.4332152,OZONE,11,14,13
India,Uttar_Pradesh,Kanpur,"NSI Kalyanpur, Kanpur - UPPCB","18-11-2024 13:00:00",26.509954,80.249612,OZONE,13,18,16
India,Uttar_Pradesh,Khurja,"Kalindi Kunj, Khurja - UPPCB","18-11-2024 13:00:00",28.2348927,77.8683002,OZONE,3,7,4
India,Uttar_Pradesh,Meerut,"Pallavpuram Phase 2, Meerut - UPPCB","18-11-2024 13:00:00",29.063510,77.709723,OZONE,7,74,19
India,Uttar_Pradesh,Moradabad,"Transport Nagar, Moradabad - UPPCB","18-11-2024 13:00:00",28.802625,78.753728,OZONE,18,30,22
India,Uttar_Pradesh,Noida,"Sector-116, Noida - UPPCB","18-11-2024 13:00:00",28.569230,77.393848,OZONE,7,244,43
India,Uttar_Pradesh,Prayagraj,"Jhunsi, Prayagraj - UPPCB","18-11-2024 13:00:00",25.425602,81.917152,OZONE,1,34,7
India,Uttar_Pradesh,Prayagraj,"Motilal Nehru NIT, Prayagraj - UPPCB","18-11-2024 13:00:00",25.494,81.863,OZONE,2,25,7
India,Uttar_Pradesh,Varanasi,"Ardhali Bazar, Varanasi - UPPCB","18-11-2024 13:00:00",25.3505986,82.9083074,OZONE,27,44,40
India,Uttar_Pradesh,Varanasi,"IESD Banaras Hindu University, Varanasi - UPPCB","18-11-2024 13:00:00",25.262326,82.995408,OZONE,20,20,10
India,West_Bengal,Durgapur,"Mahishkapur Road_B-Zone, Durgapur - WBPCB","18-11-2024 13:00:00",23.567923,87.306843,OZONE,3,238,238
India,West_Bengal,Kolkata,"Jadavpur, Kolkata - WBPCB","18-11-2024 13:00:00",22.49929,88.36917,OZONE,9,44,14
India,Assam,Guwahati,"Railway Colony, Guwahati - PCBA","18-11-2024 13:00:00",26.181742,91.78063,OZONE,1,7,1
India,Bihar,Munger,"Town Hall, Munger - BSPCB","18-11-2024 13:00:00",25.376776,86.471523,OZONE,4,8,6
India,Bihar,Muzaffarpur,"Buddha Colony, Muzaffarpur - BSPCB","18-11-2024 13:00:00",26.11442,85.39813,OZONE,14,82,30
India,Bihar,Saharsa,"Police Line, Saharsa - BSPCB","18-11-2024 13:00:00",25.892357,86.590325,OZONE,1,16,5
India,Bihar,Sasaram,"Dada Peer, Sasaram - BSPCB","18-11-2024 13:00:00",24.952822,84.002396,OZONE,NA,NA,NA
India,Bihar,Kishanganj,"SDM Office_Khagra, Kishanganj - BSPCB","18-11-2024 13:00:00",26.0881305,87.93840336,OZONE,19,21,19
India,Bihar,Motihari,"Gandak Colony, Motihari - BSPCB","18-11-2024 13:00:00",26.63086,84.90051,OZONE,22,38,28
India,Bihar,Patna,"Govt. High School Shikarpur, Patna - BSPCB","18-11-2024 13:00:00",25.592539,85.227158,OZONE,13,20,16
India,Chhattisgarh,Raipur,"Bhatagaon New ISBT, Raipur - CECB","18-11-2024 13:00:00",21.219665,81.630094,OZONE,4,11,5
India,Bihar,Chhapra,"Darshan Nagar, Chhapra - BSPCB","18-11-2024 13:00:00",25.7808257,84.7446768,OZONE,1,6,2
India,Chandigarh,Chandigarh,"Sector-25, Chandigarh - CPCC","18-11-2024 13:00:00",30.751462,76.762879,OZONE,1,12,2
India,Andhra_Pradesh,Tirupati,"Tirumala, Tirupati - APPCB","18-11-2024 13:00:00",13.67,79.35,OZONE,30,39,34
India,Delhi,Delhi,"Anand Vihar, Delhi - DPCC","18-11-2024 13:00:00",28.647622,77.3158090,OZONE,5,38,13
India,Haryana,Faridabad,"Sector 30, Faridabad - HSPCB","18-11-2024 13:00:00",28.4417,77.3217,OZONE,11,42,22
India,Haryana,Gurugram,"NISE Gwal Pahari, Gurugram - IMD","18-11-2024 13:00:00",28.422681,77.148944,OZONE,22,146,44
India,Delhi,Delhi,"Lodhi Road, Delhi - IMD","18-11-2024 13:00:00",28.5918245,77.2273074,OZONE,27,93,45
India,Delhi,Delhi,"Major Dhyan Chand National Stadium, Delhi - DPCC","18-11-2024 13:00:00",28.611281,77.237738,OZONE,4,47,14
India,Haryana,Bhiwani,"H.B. Colony, Bhiwani - HSPCB","18-11-2024 13:00:00",28.806223,76.141105,OZONE,14,26,22
India,Haryana,"Charkhi Dadri","Mini Secretariat, Charkhi Dadri - HSPCB","18-11-2024 13:00:00",28.593883,76.270653,OZONE,12,18,15
India,Haryana,Dharuhera,"Municipal Corporation Office, Dharuhera -  HSPCB","18-11-2024 13:00:00",28.206800,76.799700,OZONE,5,69,11
India,Gujarat,Vapi,"Phase-1 GIDC, Vapi - GPCB","18-11-2024 13:00:00",20.362421,72.918013,OZONE,4,5,4
India,Delhi,Delhi,"Punjabi Bagh, Delhi - DPCC","18-11-2024 13:00:00",28.674045,77.131023,OZONE,11,107,28
India,Delhi,Delhi,"Pusa, Delhi - IMD","18-11-2024 13:00:00",28.636110,77.173332,OZONE,10,72,22
India,Delhi,Delhi,"Vivek Vihar, Delhi - DPCC","18-11-2024 13:00:00",28.672342,77.315260,OZONE,12,86,19
India,Gujarat,Ahmedabad,"SAC ISRO Satellite, Ahmedabad - IITM","18-11-2024 13:00:00",23.023389,72.515201,OZONE,5,100,52
India,Haryana,Manesar,"Sector-2 IMT, Manesar - HSPCB","18-11-2024 13:00:00",28.360699,76.936090,OZONE,12,25,18
India,Karnataka,Bengaluru,"Hombegowda Nagar, Bengaluru - KSPCB","18-11-2024 13:00:00",12.938539,77.590100,OZONE,8,67,46
India,Karnataka,Haveri,"Ashwini Nagar, Haveri - KSPCB","18-11-2024 13:00:00",14.791800,75.389600,OZONE,NA,NA,NA
India,Haryana,Rohtak,"MD University, Rohtak - HSPCB","18-11-2024 13:00:00",28.52123,76.37138,OZONE,45,53,49
India,Jammu_and_Kashmir,Srinagar,"Rajbagh, Srinagar - JKSPCB","18-11-2024 13:00:00",34.066206,74.819820,OZONE,NA,NA,NA
India,Jharkhand,Jorapokhar,"Tata Stadium, Jorapokhar - JSPCB","18-11-2024 13:00:00",23.707909,86.414670,OZONE,5,10,5
India,Karnataka,Bengaluru,"BTM Layout, Bengaluru - CPCB","18-11-2024 13:00:00",12.9135218,77.5950804,OZONE,22,25,24
India,Karnataka,Bengaluru,"Hebbal, Bengaluru - KSPCB","18-11-2024 13:00:00",13.029152,77.585901,OZONE,5,7,5
India,Karnataka,Chamarajanagar,"Urban, Chamarajanagar - KSPCB","18-11-2024 13:00:00",11.55358,76.55521,OZONE,21,50,34
India,Karnataka,Yadgir,"Collector Office, Yadgir - KSPCB","18-11-2024 13:00:00",16.7602,77.1428,OZONE,18,20,19
India,Karnataka,Mangalore,"Kadri, Mangalore - KSPCB","18-11-2024 13:00:00",12.889250,74.853000,OZONE,22,23,23
India,Karnataka,Davanagere,"Devaraj Urs Badavane, Davanagere - KSPCB","18-11-2024 13:00:00",14.475800,75.905200,OZONE,22,29,26
India,Maharashtra,Badlapur,"Katrap, Badlapur - MPCB","18-11-2024 13:00:00",19.16485,73.23409,OZONE,7,104,38
India,Maharashtra,Amravati,"Shri Shivaji Science College, Amaravati - MPCB","18-11-2024 13:00:00",20.939198,77.765701,OZONE,1,129,65
India,Maharashtra,Aurangabad,"MIDC Chilkalthana, Aurangabad - MPCB","18-11-2024 13:00:00",19.875620,75.387310,OZONE,7,109,61
India,Maharashtra,Aurangabad,"More Chowk Waluj, Aurangabad - MPCB","18-11-2024 13:00:00",19.8389439,75.244448,OZONE,28,119,56
India,"Madhya Pradesh",Mandideep,"Sector-D Industrial Area, Mandideep - MPPCB","18-11-2024 13:00:00",23.108440,77.511428,OZONE,27,49,42
India,"Madhya Pradesh",Pithampur,"Sector-2 Industrial Area, Pithampur - MPPCB","18-11-2024 13:00:00",22.624758,75.675238,OZONE,43,69,59
India,"Madhya Pradesh",Satna,"Bandhavgar Colony, Satna - Birla Cement","18-11-2024 13:00:00",24.58434363,80.8549414,OZONE,13,54,25
India,"Madhya Pradesh",Ujjain,"Mahakaleshwar Temple, Ujjain - MPPCB","18-11-2024 13:00:00","23.182719 ","75.768218 ",OZONE,53,55,54
India,"Madhya Pradesh",Bhopal,"Paryavaran Parisar, Bhopal - MPPCB","18-11-2024 13:00:00",23.210494,77.425409,OZONE,1,47,21
India,"Madhya Pradesh",Bhopal,"T T Nagar, Bhopal - MPPCB","18-11-2024 13:00:00",23.233584,77.400574,OZONE,10,302,302
India,Kerala,Thiruvananthapuram,"Kariavattom, Thiruvananthapuram - Kerala PCB","18-11-2024 13:00:00",8.563700,76.886500,OZONE,36,37,36
India,"Madhya Pradesh",Indore,"Chhoti Gwaltoli, Indore - MPPCB","18-11-2024 13:00:00",22.4310,75.5213,OZONE,4,136,48
India,"Madhya Pradesh",Jabalpur,"Gupteshwar, Jabalpur - JMC","18-11-2024 13:00:00",23.142888,79.916147,OZONE,12,118,45
India,Maharashtra,Amravati,"Shivneri Colony, Amravati - MPCB","18-11-2024 13:00:00",20.9402359,77.7895248,OZONE,11,128,59
India,Maharashtra,Nashik,"Hirawadi, Nashik - MPCB","18-11-2024 13:00:00",20.021503,73.813844,OZONE,15,83,46
India,Maharashtra,Pune,"Transport Nagar-Nigdi, Pune - IITM","18-11-2024 13:00:00",18.664282,73.763966,OZONE,1,156,51
India,Maharashtra,Latur,"Sawe Wadi, Latur - MPCB","18-11-2024 13:00:00",18.39963,76.57452,OZONE,37,184,57
India,Maharashtra,Pimpri-Chinchwad,"Savta Mali Nagar, Pimpri-Chinchwad - IITM","18-11-2024 13:00:00",18.614767,73.799516,OZONE,2,121,46
India,Maharashtra,Pune,"Bhumkar Nagar, Pune - IITM","18-11-2024 13:00:00",18.605770,73.749976,OZONE,5,147,52
India,Maharashtra,Thane,"Kasarvadavali, Thane - MPCB","18-11-2024 13:00:00",19.26777,72.97182,OZONE,12,80,46
India,Maharashtra,Mumbai,"Sion, Mumbai - MPCB","18-11-2024 13:00:00",19.047000,72.874600,OZONE,16,20,20
India,Maharashtra,Mumbai,"Vile Parle West, Mumbai - MPCB","18-11-2024 13:00:00",19.10861,72.83622,OZONE,2,4,3
India,Maharashtra,Chandrapur,"Chauhan Colony, Chandrapur - MPCB","18-11-2024 13:00:00",19.962900,79.298714,OZONE,42,54,48
India,Maharashtra,Dhule,"Deopur, Dhule - MPCB","18-11-2024 13:00:00",20.918946,74.776388,OZONE,1,87,42
India,Maharashtra,Mumbai,"Borivali East, Mumbai - IITM","18-11-2024 13:00:00",19.23241,72.86895,OZONE,2,60,39
India,Maharashtra,Mumbai,"Kherwadi_Bandra East, Mumbai - MPCB","18-11-2024 13:00:00",19.0632143,72.8456324,OZONE,1,218,23
India,Maharashtra,Thane,"Upvan Fort, Thane - MPCB","18-11-2024 13:00:00",19.222279,72.957979,OZONE,10,115,75
India,Maharashtra,Virar,"Bolinj, Virar - MPCB","18-11-2024 13:00:00",19.4458210,72.7988231,OZONE,3,164,18
India,Rajasthan,Baran,"Bamboliya, Baran - RSPCB","18-11-2024 13:00:00",25.106006,76.469948,OZONE,2,101,44
India,Rajasthan,Barmer,"Railway Colony, Barmer - RSPCB","18-11-2024 13:00:00",25.747299,71.393989,OZONE,47,108,74
India,Odisha,Angul,"Hakimapada, Angul - OSPCB","18-11-2024 13:00:00",20.832874,85.104082,OZONE,16,208,84
India,Odisha,Barbil,"Forest Office, Barbil - OSPCB","18-11-2024 13:00:00",22.1166054,85.3945546,OZONE,3,61,28
India,Meghalaya,Shillong,"Lumpyngngad, Shillong - Meghalaya PCB","18-11-2024 13:00:00",25.5586,91.8985,OZONE,18,44,37
India,Odisha,Bhubaneswar,"Lingraj Mandir, Bhubaneswar - OSPCB","18-11-2024 13:00:00",20.240790,85.836784,OZONE,6,43,25
India,Odisha,Talcher,"Talcher Coalfields,Talcher - OSPCB","18-11-2024 13:00:00",20.9360711,85.1707021,OZONE,21,30,26
India,Odisha,Cuttack,"CDA Area, Cuttack - OSPCB","18-11-2024 13:00:00","20.48891     ","85.84768     ",OZONE,4,127,62
India,Rajasthan,Banswara,"Rati Talai, Banswara - RSPCB","18-11-2024 13:00:00",23.555190,74.440010,OZONE,7,180,69
India,TamilNadu,Karur,"Kamadenu Nagar, Karur - TNPCB","18-11-2024 13:00:00",10.967820,78.080882,OZONE,7,8,8
India,Rajasthan,Bikaner,"MM Ground, Bikaner - RSPCB","18-11-2024 13:00:00",28.018792,73.292658,OZONE,5,118,57
India,Rajasthan,Chittorgarh,"Shastri Nagar, Chittorgarh - RSPCB","18-11-2024 13:00:00",24.892047,74.623527,OZONE,2,154,62
India,Rajasthan,Sirohi,"Vedhaynath Colony, Sirohi - RSPCB","18-11-2024 13:00:00",24.885261,72.857549,OZONE,10,83,43
India,Rajasthan,Tonk,"Shastri Nagar, Tonk - RSPCB","18-11-2024 13:00:00",26.159933,75.780517,OZONE,8,71,34
India,TamilNadu,Coimbatore,"PSG College of Arts and Science, Coimbatore - TNPCB","18-11-2024 13:00:00",11.0328,77.0349,OZONE,4,6,5
India,Sikkim,Gangtok,"Zero Point GICI, Gangtok - SSPCB","18-11-2024 13:00:00",27.338530,88.614099,OZONE,13,47,13
India,Rajasthan,Jaipur,"Sector-2 Murlipura, Jaipur - RSPCB","18-11-2024 13:00:00",26.960669,75.771817,OZONE,13,84,48
India,Rajasthan,Jhunjhunu,"Indra Nagar, Jhunjhunu - RSPCB","18-11-2024 13:00:00",28.108988,75.386577,OZONE,4,107,40
India,Rajasthan,Pali,"Indira Colony Vistar, Pali - RSPCB","18-11-2024 13:00:00",25.771061," 73.340227",OZONE,18,40,24
India,TamilNadu,Chennai,"Royapuram, Chennai - TNPCB","18-11-2024 13:00:00",13.1036,80.2909,OZONE,16,21,19
India,TamilNadu,Palkalaiperur,"Bharathidasan University, Palkalaiperur - TNPCB","18-11-2024 13:00:00",10.681158,78.741746,CO,10,10,10
India,TamilNadu,Perundurai,"SIPCOT Industrial Park, Perundurai - TNPCB","18-11-2024 13:00:00",11.258242,77.552761,OZONE,1,24,7
India,Uttar_Pradesh,Lucknow,"Gomti Nagar, Lucknow - UPPCB","18-11-2024 13:00:00",26.868120,81.005119,OZONE,31,42,35
India,Uttar_Pradesh,Lucknow,"Kendriya Vidyalaya, Lucknow - CPCB","18-11-2024 13:00:00",26.906111,80.948222,OZONE,6,46,18
India,Uttar_Pradesh,Lucknow,"Kukrail Picnic Spot-1, Lucknow - UPPCB","18-11-2024 13:00:00",26.90723,80.98579,OZONE,11,49,22
India,TamilNadu,Madurai,"Uchapatti, Madurai - TNPCB","18-11-2024 13:00:00",9.865935,78.022669,OZONE,6,6,6
India,TamilNadu,Ooty,"Bombay Castel, Ooty - TNPCB","18-11-2024 13:00:00",11.4068288,76.7138973,OZONE,5,6,5
India,Uttar_Pradesh,Ghaziabad,"Loni, Ghaziabad - UPPCB","18-11-2024 13:00:00",28.757294,77.278792,OZONE,8,108,22
India,Uttar_Pradesh,Ghaziabad,"Sanjay Nagar, Ghaziabad - UPPCB","18-11-2024 13:00:00",28.685382,77.453839,OZONE,8,74,21
India,TamilNadu,Vellore,"Vasanthapuram, Vellore - TNPCB","18-11-2024 13:00:00",12.909494,79.131861,CO,5,5,5
India,Uttar_Pradesh,Lucknow,"Talkatora District Industries Center, Lucknow - CPCB","18-11-2024 13:00:00",26.83399722,80.8917361,OZONE,1,45,12
India,Uttar_Pradesh,"Greater Noida","Knowledge Park - V, Greater Noida - UPPCB","18-11-2024 13:00:00",28.557054,77.453663,OZONE,4,176,47
India,Uttar_Pradesh,Firozabad,"Nagla Bhau, Firozabad - UPPCB","18-11-2024 13:00:00",27.168897,78.376960,OZONE,17,25,24
India,Uttar_Pradesh,Lucknow,"B R Ambedkar University, Lucknow - UPPCB","18-11-2024 13:00:00",26.766433,80.927299,OZONE,4,27,9
India,Uttar_Pradesh,Noida,"Sector-1, Noida - UPPCB","18-11-2024 13:00:00",28.5898,77.3101,OZONE,9,38,19
India,Uttarakhand,Rishikesh,"Shivaji Nagar, Rishikesh - UKPCB","18-11-2024 13:00:00",30.075911,78.2859547,OZONE,6,44,12
India,West_Bengal,Asansol,"Trivenidevi Bhalotia College, Asansol - WBPCB","18-11-2024 13:00:00",23.616515,87.119133,OZONE,10,90,44
India,West_Bengal,Howrah,"Dasnagar, Howrah - WBPCB","18-11-2024 13:00:00",22.6025571,88.3105664,OZONE,4,205,184
India,Bihar,Samastipur,"DM Office_Kasipur, Samastipur - BSPCB","18-11-2024 13:00:00",25.859655,85.77944,OZONE,7,9,8
India,Bihar,Siwan,"Chitragupta Nagar, Siwan - BSPCB","18-11-2024 13:00:00",26.2271665,84.3570427,OZONE,NA,NA,NA
India,Chhattisgarh,Bhilai,"Civic Center, Bhilai - Bhilai Steel Plant","18-11-2024 13:00:00",21.185571,81.343175,OZONE,9,56,22
India,Chhattisgarh,Bilaspur,"Mangala, Bilaspur - NTPC","18-11-2024 13:00:00",22.08815,82.13737,CO,29,45,41
India,Andhra_Pradesh,Visakhapatnam,"GVM Corporation, Visakhapatnam - APPCB","18-11-2024 13:00:00",17.72,83.3,OZONE,7,35,15
India,Assam,Guwahati,"IITG, Guwahati - PCBA","18-11-2024 13:00:00",26.2028636,91.70046436,OZONE,24,30,27
India,Assam,Nalbari,"Bata Chowk, Nalbari - PCBA","18-11-2024 13:00:00",26.446912,91.439057,OZONE,12,17,16
India,Assam,Silchar,"Tarapur, Silchar - PCBA","18-11-2024 13:00:00",24.82827,92.79525,OZONE,2,3,1
India,Assam,Sivasagar,"Girls College, Sivasagar - PCBA","18-11-2024 13:00:00",26.987634,94.636574,OZONE,10,20,16
India,Bihar,Begusarai,"Lohiyanagar, Begusarai - BSPCB (Formerly known as DRCC Anandpur)","18-11-2024 13:00:00",25.42742023,86.13886079,OZONE,7,65,36
India,Bihar,Purnia,"Mariam Nagar, Purnia - BSPCB","18-11-2024 13:00:00",25.366336,87.117468,OZONE,29,43,35
India,Bihar,Rajgir,"Dangi Tola, Rajgir - BSPCB","18-11-2024 13:00:00",25.03280,85.41948,OZONE,32,39,35
India,Andhra_Pradesh,Kadapa,"Yerramukkapalli, Kadapa - APPCB","18-11-2024 13:00:00",14.465052,78.824187,OZONE,22,57,24
India,Bihar,Muzaffarpur,"MIT-Daudpur Kothi, Muzaffarpur - BSPCB","18-11-2024 13:00:00",26.1403345,85.3650192,OZONE,49,65,55
India,Chhattisgarh,Korba,"Rampur, Korba - CECB","18-11-2024 13:00:00",22.368195,82.746431,OZONE,4,9,5
India,Andhra_Pradesh,Vijayawada,"Kanuru, Vijayawada - APPCB","18-11-2024 13:00:00",16.486692,80.699436,OZONE,32,43,36
India,Delhi,Delhi,"Rohini, Delhi - DPCC","18-11-2024 13:00:00",28.732528,77.119920,OZONE,14,111,27
India,Delhi,Delhi,"Dr. Karni Singh Shooting Range, Delhi - DPCC","18-11-2024 13:00:00",28.498571,77.264840,OZONE,11,264,50
India,Delhi,Delhi,"Dwarka-Sector 8, Delhi - DPCC ","18-11-2024 13:00:00",28.5710274,77.0719006,OZONE,35,65,51
India,Delhi,Delhi,"IGI Airport (T3), Delhi - IMD","18-11-2024 13:00:00",28.5627763,77.1180053,OZONE,7,77,25
India,Delhi,Delhi,"Sri Aurobindo Marg, Delhi - DPCC","18-11-2024 13:00:00",28.531346,77.190156,OZONE,12,197,42
India,Gujarat,Surat,"Science Center, Surat - SMC","18-11-2024 13:00:00",21.170046,72.795405,CO,34,64,47
India,Delhi,Delhi,"Aya Nagar, Delhi - IMD","18-11-2024 13:00:00",28.4706914,77.1099364,OZONE,20,238,45
India,Delhi,Delhi,"Chandni Chowk, Delhi - IITM","18-11-2024 13:00:00",28.656756,77.227234,OZONE,10,64,28
India,Gujarat,Vatva,"Phase-4 GIDC, Vatva - GPCB","18-11-2024 13:00:00",22.969611,72.643500,OZONE,6,44,18
India,Gujarat,Ahmedabad,"Gyaspur, Ahmedabad - IITM","18-11-2024 13:00:00",22.977134,72.553024,OZONE,7,73,27
India,Delhi,Delhi,"Narela, Delhi - DPCC","18-11-2024 13:00:00",28.822836,77.101981,OZONE,11,113,25
India,Haryana,Faridabad,"Sector 11, Faridabad - HSPCB","18-11-2024 13:00:00",28.376058,77.315741,OZONE,24,26,25
India,Haryana,Fatehabad,"Huda Sector, Fatehabad - HSPCB","18-11-2024 13:00:00",29.503664,75.467934,OZONE,60,100,78
India,Karnataka,Bengaluru,"City Railway Station, Bengaluru - KSPCB","18-11-2024 13:00:00",12.9756843,77.5660749,CO,36,84,64
India,Haryana,Kurukshetra,"Sector-7, Kurukshetra - HSPCB","18-11-2024 13:00:00",29.966942,76.875879,OZONE,5,64,15
India,Haryana,Mandikhera,"General Hospital, Mandikhera - HSPCB","18-11-2024 13:00:00",27.9002,76.9938,OZONE,22,30,26
India,Haryana,Narnaul,"Shastri Nagar, Narnaul - HSPCB","18-11-2024 13:00:00",28.060249,76.113115,OZONE,63,86,83
India,Haryana,Palwal,"Shyam Nagar, Palwal - HSPCB","18-11-2024 13:00:00",28.1485564,77.3320667,OZONE,19,21,20
India,Haryana,Jind,"Police Lines, Jind - HSPCB","18-11-2024 13:00:00",29.307814,76.337619,OZONE,3,46,12
India,Haryana,Kaithal,"Rishi Nagar, Kaithal - HSPCB","18-11-2024 13:00:00",29.8006,76.4155,OZONE,1,31,6
India,Karnataka,Bengaluru,"Jayanagar 5th Block, Bengaluru - KSPCB","18-11-2024 13:00:00",12.920984,77.584908,OZONE,12,35,19
India,Karnataka,Bengaluru,"Jigani, Bengaluru - KSPCB","18-11-2024 13:00:00",12.7816279,77.6299145,OZONE,14,15,14
India,Karnataka,Bengaluru,"RVCE-Mailasandra, Bengaluru - KSPCB","18-11-2024 13:00:00",12.921418,77.502466,OZONE,30,33,30
India,Haryana,Gurugram,"Teri Gram, Gurugram - HSPCB","18-11-2024 13:00:00",28.4275,77.1465,OZONE,5,15,6
India,Haryana,Ballabgarh,"Nathu Colony, Ballabgarh - HSPCB","18-11-2024 13:00:00",28.3419248,77.319699,OZONE,8,95,25
India,"Madhya Pradesh",Jabalpur,"Suhagi, Jabalpur - JMC","18-11-2024 13:00:00",23.218135,79.957770,OZONE,16,110,51
India,Karnataka,Vijayapura,"Ibrahimpur, Vijayapura - KSPCB","18-11-2024 13:00:00",16.802639,75.722694,OZONE,14,17,16
India,Maharashtra,Jalgaon,"Prabhat Colony, Jalgaon - MPCB","18-11-2024 13:00:00",21.001264,75.565602,OZONE,4,103,64
India,Karnataka,Chikkaballapur,"Chikkaballapur Rural, Chikkaballapur - KSPCB","18-11-2024 13:00:00",13.428828,77.731418,OZONE,24,27,24
India,Maharashtra,Akola,"Ramdaspeth, Akola - MPCB","18-11-2024 13:00:00",20.719516,77.000253,OZONE,3,98,42
India,"Madhya Pradesh",Indore,"Maguda Nagar, Indore - IMC","18-11-2024 13:00:00",22.7524,75.8872,OZONE,6,16,12
India,Karnataka,Kolar,"Tamaka Ind. Area, Kolar - KSPCB","18-11-2024 13:00:00",13.1276288,78.1570122,OZONE,9,33,14
India,"Madhya Pradesh",Gwalior,"Maharaj Bada, Gwalior - MPPCB","18-11-2024 13:00:00",26.200388,78.147714,OZONE,38,55,45
India,"Madhya Pradesh",Jabalpur,"Govindh Bhavan Colony, Jabalpur - JMC","18-11-2024 13:00:00",23.163174,79.973061,OZONE,10,60,19
India,Maharashtra,Nagpur,"Ram Nagar, Nagpur - MPCB","18-11-2024 13:00:00",21.143383,79.048912,OZONE,1,109,45
India,Maharashtra,Nanded,"Sneh Nagar, Nanded - MPCB","18-11-2024 13:00:00",19.173852,77.296291,OZONE,11,100,47
India,Maharashtra,Mumbai,"Kurla, Mumbai - MPCB","18-11-2024 13:00:00",19.0863,72.8888,OZONE,28,29,28
India,Maharashtra,Mumbai,"Mazgaon, Mumbai - IITM","18-11-2024 13:00:00",18.96702,72.84214,OZONE,4,189,42
India,Maharashtra,Mumbai,"Mindspace-Malad West, Mumbai - MPCB","18-11-2024 13:00:00",19.1878657,72.8304069,OZONE,9,60,27
India,Maharashtra,Solapur,"Solapur, Solapur - MPCB","18-11-2024 13:00:00",17.6599188,75.9063906,SO2,3,102,35
India,Maharashtra,Pune,"Karve Road, Pune - MPCB","18-11-2024 13:00:00",18.5011743,73.8165527,OZONE,2,49,17
India,Maharashtra,Pune,"Mhada Colony, Pune - IITM","18-11-2024 13:00:00",18.573040,73.927715,OZONE,7,111,46
India,Maharashtra,Mumbai,"Vasai West, Mumbai - MPCB","18-11-2024 13:00:00",19.383200,72.820400,OZONE,6,7,7
India,Maharashtra,Mumbai,"Worli, Mumbai - MPCB","18-11-2024 13:00:00",18.9936162,72.8128113,OZONE,4,30,16
India,Maharashtra,Mumbai,"Kandivali East, Mumbai - MPCB","18-11-2024 13:00:00",19.205800,72.868200,OZONE,13,16,15
India,Maharashtra,"Navi Mumbai","Kopripada-Vashi, Navi Mumbai - MPCB","18-11-2024 13:00:00",19.090337,73.014232,OZONE,1,100,31
India,Maharashtra,Mumbai,"Sewri, Mumbai - BMC","18-11-2024 13:00:00",19.000084,72.856730,OZONE,1,166,166
India,Maharashtra,Nagpur,"Ambazari, Nagpur - MPCB","18-11-2024 13:00:00",21.121801,79.04952,OZONE,2,126,62
India,Rajasthan,Bhiwadi,"Vasundhara Nagar_UIT, Bhiwadi - RSPCB","18-11-2024 13:00:00",28.207266,76.829265,OZONE,10,69,22
India,Odisha,Rairangpur,"Divisional Forest Office, Rairangpur - OSPCB","18-11-2024 13:00:00",22.265816,86.174829,OZONE,3,56,12
India,Odisha,Rourkela,"Fertilizer Township, Rourkela - OSPCB","18-11-2024 13:00:00",22.18972222,84.86277778,CO,16,24,19
India,Odisha,Rourkela,"Sector-2, Rourkela - OSPCB","18-11-2024 13:00:00",22.24500000,84.88111111,CO,17,57,23
India,Maharashtra,Ulhasnagar,"Sidhi Vinayak Nagar, Ulhasnagar - MPCB","18-11-2024 13:00:00",19.235581,73.159121,OZONE,9,110,58
India,Meghalaya,Shillong,"JN Stadium, Shillong - Meghalaya PCB","18-11-2024 13:00:00",25.5803419,91.8942571,NO2,9,46,23
India,Odisha,Brajrajnagar,"GM Office, Brajrajnagar - OSPCB","18-11-2024 13:00:00",21.8004996,83.8396977,OZONE,25,28,26
India,Odisha,Keonjhar,"Jagamohanpur, Keonjhar - OSPCB","18-11-2024 13:00:00",21.643900,85.599355,OZONE,33,36,35
India,Punjab,Amritsar,"Golden Temple, Amritsar - PPCB","18-11-2024 13:00:00",31.620000,74.876512,OZONE,44,55,50
India,Punjab,Bathinda,"Hardev Nagar, Bathinda - PPCB","18-11-2024 13:00:00",30.233011,74.907758,CO,3,86,30
India,Rajasthan,Bharatpur,"Krishna Nagar, Bharatpur - RSPCB","18-11-2024 13:00:00",27.215415,77.50873,OZONE,17,147,46
India,Rajasthan,Bhilwara,"Pratap Nagar, Bhilwara - RSPCB","18-11-2024 13:00:00",25.339605,74.618883,OZONE,8,110,53
India,Odisha,Bhubaneswar,"Patia, Bhubaneswar - OSPCB","18-11-2024 13:00:00",20.34652,85.81630,OZONE,4,161,157
India,Odisha,Bileipada,"Tata Township, Bileipada - OSPCB","18-11-2024 13:00:00",22.06156703,85.47409613,OZONE,24,28,26
India,Rajasthan,Alwar,"Moti Doongri, Alwar - RSPCB","18-11-2024 13:00:00",27.554793,76.611536,OZONE,15,58,20
India,Odisha,Tensa,"Barsua Iron Ore Mines, Tensa - OSPCB","18-11-2024 13:00:00",21.869985,85.167016,OZONE,39,63,59
India,TamilNadu,Chennai,"Velachery Res. Area, Chennai - CPCB","18-11-2024 13:00:00",13.0052189,80.2398125,OZONE,6,9,8
India,TamilNadu,Dindigul,"Mendonsa Colony, Dindigul - TNPCB","18-11-2024 13:00:00",10.358535,77.984321,SO2,18,21,20
India,TamilNadu,Ariyalur,"Keelapalur, Ariyalur - TNPCB","18-11-2024 13:00:00",11.06825,79.07033,SO2,8,11,9
India,TamilNadu,Pudukottai,"SIPCOT Nathampannai, Pudukottai - TNPCB","18-11-2024 13:00:00",10.423417,78.784889,OZONE,1,1,1
India,TamilNadu,Ramanathapuram,"Chalai Bazaar, Ramanathapuram - TNPCB","18-11-2024 13:00:00",9.36399,78.831977,OZONE,10,10,10
India,Rajasthan,Jodhpur,"Collectorate, Jodhpur - RSPCB","18-11-2024 13:00:00",26.268249,73.0193853,OZONE,14,77,39
India,Rajasthan,Bundi,"New Colony, Bundi - RSPCB","18-11-2024 13:00:00",25.435774,75.644272,OZONE,34,117,68
India,Rajasthan,"Sawai Madhopur","Sahu Nagar, Sawai Madhopur - RSPCB","18-11-2024 13:00:00",26.031443,76.359327,OZONE,15,135,68
India,Rajasthan,Pratapgarh,"Pragati Nagar, Pratapgarh - RSPCB","18-11-2024 13:00:00",24.041198,74.780702,OZONE,42,104,65
India,Rajasthan,Jalore,"Mudtra Sili, Jalore - RSPCB","18-11-2024 13:00:00",25.344694,72.626208,OZONE,15,94,50
India,Telangana,Hyderabad,"Central University, Hyderabad - TSPCB","18-11-2024 13:00:00",17.460103,78.334361,OZONE,7,20,13
India,Telangana,Hyderabad,"ICRISAT Patancheru, Hyderabad - TSPCB","18-11-2024 13:00:00",17.518400,78.278777,OZONE,2,70,30
India,Uttar_Pradesh,Moradabad,"Eco Herbal Park, Moradabad - UPPCB","18-11-2024 13:00:00",28.840739,78.697531,OZONE,9,114,36
India,Uttar_Pradesh,Moradabad,"Employment Office, Moradabad - UPPCB","18-11-2024 13:00:00",28.88528,78.73880,OZONE,7,30,8
India,Uttar_Pradesh,Moradabad,"Jigar Colony, Moradabad - UPPCB","18-11-2024 13:00:00",28.856664,78.772638,OZONE,28,86,61
India,Telangana,Hyderabad,"IITH Kandi, Hyderabad - TSPCB","18-11-2024 13:00:00",17.585705,78.126199,OZONE,26,39,34
India,Uttar_Pradesh,Bareilly,"Rajendra Nagar, Bareilly - UPPCB","18-11-2024 13:00:00",28.38910936,79.42963708,OZONE,NA,NA,NA
India,Uttar_Pradesh,Bulandshahr,"Yamunapuram, Bulandshahr - UPPCB","18-11-2024 13:00:00",28.406963,77.849831,OZONE,1,55,13
India,Telangana,Hyderabad,"Kompally Municipal Office, Hyderabad - TSPCB","18-11-2024 13:00:00",17.544899,78.486949,OZONE,16,78,40
India,Uttar_Pradesh,Agra,"Shahjahan Garden, Agra - UPPCB","18-11-2024 13:00:00",27.169338,78.03582,OZONE,NA,NA,NA
India,Uttar_Pradesh,Gorakhpur,"Madan Mohan Malaviya University of Technology, Gorakhpur - UPPCB","18-11-2024 13:00:00",26.730136,83.433859,OZONE,22,47,36
India,Uttar_Pradesh,Agra,"Rohta, Agra - UPPCB","18-11-2024 13:00:00",27.106972,78.000111,OZONE,13,17,16
India,Telangana,Hyderabad,"Bollaram Industrial Area, Hyderabad - TSPCB","18-11-2024 13:00:00",17.540891,78.358528,OZONE,33,35,34
India,Uttar_Pradesh,Moradabad,"Kashiram Nagar, Moradabad - UPPCB","18-11-2024 13:00:00",28.849399,78.742362,OZONE,8,20,9
India,Uttar_Pradesh,Varanasi,"Bhelupur, Varanasi - UPPCB","18-11-2024 13:00:00",25.301778,82.996789,OZONE,1,7,2
India,Uttarakhand,Dehradun,"Doon University, Dehradun - UKPCB","18-11-2024 13:00:00",30.269444,78.044167,OZONE,10,33,19
India,West_Bengal,Asansol,"Evelyn Lodge, Asansol - WBPCB","18-11-2024 13:00:00",23.6979360,86.9443950,OZONE,15,62,32
India,West_Bengal,Barrackpore,"SVSPA Campus, Barrackpore - WBPCB","18-11-2024 13:00:00",22.7605581,88.3617589,OZONE,3,77,20
India,West_Bengal,Kolkata,"Rabindra Bharati University, Kolkata - WBPCB","18-11-2024 13:00:00",22.627847,88.380669,OZONE,2,124,38
India,Andhra_Pradesh,Vijayawada,"HB Colony, Vijayawada - APPCB","18-11-2024 13:00:00",16.536107,80.594233,OZONE,35,69,49
India,Andhra_Pradesh,Vijayawada,"Rajiv Gandhi Park, Vijayawada - APPCB","18-11-2024 13:00:00",16.509717,80.612222,OZONE,46,89,70
India,Andhra_Pradesh,Vijayawada,"Rajiv Nagar, Vijayawada - APPCB","18-11-2024 13:00:00",16.554731,80.649110,OZONE,21,55,39
India,Bihar,Bhagalpur,"Mayaganj, Bhagalpur - BSPCB","18-11-2024 13:00:00",25.265194,87.012947,OZONE,28,40,30
India,Bihar,Buxar,"Charitra Van, Buxar - BSPCB (Formerly known as Central Jail)","18-11-2024 13:00:00",25.567520,83.966379,OZONE,10,26,16
India,Bihar,Gaya,"SFTI Kusdihra, Gaya - BSPCB","18-11-2024 13:00:00",24.762518,84.982348,OZONE,46,84,59
India,Bihar,Araria,"Kharahiya Basti, Araria - BSPCB","18-11-2024 13:00:00",26.146529,87.454184,OZONE,1,41,13
India,Bihar,Aurangabad,"Gurdeo Nagar, Aurangabad - BSPCB","18-11-2024 13:00:00",24.75746,84.366208,OZONE,20,100,50
India,Bihar,Patna,"Rajbansi Nagar, Patna - BSPCB","18-11-2024 13:00:00",25.599486,85.113666,OZONE,12,91,48
India,Bihar,Patna,"Samanpura, Patna - BSPCB","18-11-2024 13:00:00",25.596727,85.085624,OZONE,69,107,89
India,Andhra_Pradesh,Amaravati,"Secretariat, Amaravati - APPCB","18-11-2024 13:00:00",16.5150833,80.5181667,OZONE,47,95,75
India,Bihar,Patna,"Muradpur, Patna - BSPCB","18-11-2024 13:00:00",25.619651,85.147382,OZONE,6,40,38
India,Bihar,Gaya,"Kareemganj, Gaya - BSPCB","18-11-2024 13:00:00",24.792403,84.992416,OZONE,9,134,44
India,Bihar,Bhagalpur,"DM Office_Kachari Chowk, Bhagalpur - BSPCB","18-11-2024 13:00:00",25.251013,86.989001,OZONE,14,17,15
India,Andhra_Pradesh,Tirupati,"Vaikuntapuram, Tirupati - APPCB","18-11-2024 13:00:00",13.615387,79.409230,OZONE,22,70,23
India,Delhi,Delhi,"NSIT Dwarka, Delhi - CPCB","18-11-2024 13:00:00",28.60909,77.0325413,OZONE,7,29,10
India,Delhi,Delhi,"Najafgarh, Delhi - DPCC","18-11-2024 13:00:00",28.570173,76.933762,OZONE,24,193,40
India,Delhi,Delhi,"Burari Crossing, Delhi - IMD","18-11-2024 13:00:00",28.7256504,77.2011573,OZONE,25,76,32
India,Delhi,Delhi,"CRRI Mathura Road, Delhi - IMD","18-11-2024 13:00:00",28.5512005,77.2735737,OZONE,8,88,30
India,Delhi,Delhi,"North Campus, DU, Delhi - IMD","18-11-2024 13:00:00",28.6573814,77.1585447,OZONE,4,32,15
India,Delhi,Delhi,"Okhla Phase-2, Delhi - DPCC","18-11-2024 13:00:00",28.530785,77.271255,OZONE,7,94,23
India,Chhattisgarh,Raipur,"Krishak Nagar, Raipur - CECB","18-11-2024 13:00:00",21.237755,81.705301,OZONE,5,17,7
India,Chhattisgarh,Tumidih,"OP Jindal Industrial Park, Tumidih - CECB","18-11-2024 13:00:00",22.06631475,83.33820077,OZONE,46,51,48
India,Delhi,Delhi,"Jawaharlal Nehru Stadium, Delhi - DPCC","18-11-2024 13:00:00",28.580280,77.233829,OZONE,2,67,14
India,Chandigarh,Chandigarh,"Sector 22, Chandigarh - CPCC","18-11-2024 13:00:00",30.735567,76.775714,OZONE,4,136,32
India,Chhattisgarh,Korba,"Urja Nagar, Korba - CECB","18-11-2024 13:00:00",22.348441,82.549611,OZONE,35,36,36
India,Delhi,Delhi,"Ashok Vihar, Delhi - DPCC","18-11-2024 13:00:00",28.695381,77.181665,OZONE,5,6,5
India,Delhi,Delhi,"Mandir Marg, Delhi - DPCC","18-11-2024 13:00:00",28.636429,77.201067,OZONE,7,27,13
India,Haryana,Faridabad,"Sector- 16A, Faridabad - HSPCB","18-11-2024 13:00:00",28.4088421,77.3099081,OZONE,14,14,14
India,Haryana,Bahadurgarh,"Arya Nagar, Bahadurgarh - HSPCB","18-11-2024 13:00:00",28.6701,76.9254,OZONE,7,16,11
India,Gujarat,Ankleshwar,"GIDC, Ankleshwar - GPCB","18-11-2024 13:00:00",21.613267,73.010555,OZONE,29,46,36
India,Gujarat,Ahmedabad,"Rakhial, Ahmedabad - IITM","18-11-2024 13:00:00",23.016834,72.625775,OZONE,2,80,44
India,Haryana,Sonipat,"Murthal, Sonipat - HSPCB","18-11-2024 13:00:00",29.027200,77.062100,OZONE,NA,NA,NA
India,Haryana,Karnal,"Sector-12, Karnal - HSPCB","18-11-2024 13:00:00",29.695300,77.002700,OZONE,4,39,14
India,Delhi,Delhi,"Sirifort, Delhi - CPCB","18-11-2024 13:00:00",28.5504249,77.2159377,OZONE,21,29,26
India,Delhi,Delhi,"R K Puram, Delhi - DPCC","18-11-2024 13:00:00",28.563262,77.186937,OZONE,14,120,34
India,Delhi,Delhi,"Wazirpur, Delhi - DPCC","18-11-2024 13:00:00",28.699793,77.165453,OZONE,5,50,24
India,Karnataka,Bagalkot,"Vidayagiri, Bagalkot - KSPCB","18-11-2024 13:00:00",16.172806,75.659694,OZONE,51,52,52
India,Karnataka,Bengaluru,"Bapuji Nagar, Bengaluru - KSPCB","18-11-2024 13:00:00",12.951913,77.539784,OZONE,25,38,31
India,Karnataka,Kalaburagi,"Mahatma Basaveswar Colony, Kalaburgi - KSPCB","18-11-2024 13:00:00",17.336318,76.847397,OZONE,19,68,35
India,Kerala,Thiruvananthapuram,"Plammoodu, Thiruvananthapuram - Kerala PCB","18-11-2024 13:00:00",8.5149093,76.9435879,OZONE,8,22,14
India,Kerala,Thrissur,"Corporation Ground, Thrissur - Kerala PCB","18-11-2024 13:00:00",10.532400,76.215900,OZONE,30,31,30
India,Karnataka,Mysuru,"Hebbal 1st Stage, Mysuru - KSPCB","18-11-2024 13:00:00",12.21041,76.37376,OZONE,5,61,30
India,Karnataka,Ramanagara,"Vijay Nagar, Ramanagara - KSPCB","18-11-2024 13:00:00",12.733409,77.298051,OZONE,16,87,65
India,"Madhya Pradesh",Indore,"Airport Area, Indore - IMC","18-11-2024 13:00:00",22.7289,75.8076,OZONE,6,20,12
India,Karnataka,Udupi,"Brahmagiri, Udupi - KSPCB","18-11-2024 13:00:00",13.34194444,74.74694444,OZONE,22,24,23
India,Karnataka,Bengaluru,"Peenya, Bengaluru - CPCB","18-11-2024 13:00:00",13.0270199,77.494094,OZONE,23,23,23
India,Karnataka,Madikeri,"Stuart Hill, Madikeri - KSPCB","18-11-2024 13:00:00",12.415911,75.735050,OZONE,5,6,6
India,"Himachal Pradesh",Baddi,"HIMUDA Complex Phase-1, Baddi - HPPCB","18-11-2024 13:00:00",30.943887,76.801991,OZONE,4,130,46
India,Maharashtra,Mumbai,"Navy Nagar-Colaba, Mumbai - IITM","18-11-2024 13:00:00",18.897756,72.813320,OZONE,4,285,170
India,Maharashtra,Malegaon,"Mahesh Nagar, Malegaon - MPCB","18-11-2024 13:00:00",20.555712,74.529236,OZONE,5,79,41
India,Maharashtra,Mira-Bhayandar,"Bhayandar West, Mira-Bhayandar - MPCB","18-11-2024 13:00:00",19.296481,72.840923,OZONE,8,91,61
India,Maharashtra,Kolhapur,"Shivaji University, Kolhapur - MPCB","18-11-2024 13:00:00",16.6870449,74.2505872,OZONE,162,167,162
India,Maharashtra,Mahad,"Kamble Tarf Birwadi, Mahad - MPCB","18-11-2024 13:00:00",18.1023399,73.4783687,OZONE,38,124,86
India,"Madhya Pradesh",Indore,"Residency Area, Indore - IMC","18-11-2024 13:00:00",22.7084,75.8815,OZONE,19,23,21
India,Maharashtra,Aurangabad,"Rachnakar Colony, Aurangabad - MPCB","18-11-2024 13:00:00",19.863756,75.321188,OZONE,19,106,52
India,Maharashtra,Mumbai,"Khindipada-Bhandup West, Mumbai - IITM","18-11-2024 13:00:00",19.1653323,72.922099,OZONE,2,100,54
India,Maharashtra,Ahmednagar,"Tarakpur, Ahmednagar - MPCB","18-11-2024 13:00:00",19.10122,74.73339,OZONE,13,156,70
India,Maharashtra,Kalyan,"Khadakpada, Kalyan - MPCB","18-11-2024 13:00:00",19.25292,73.142019,OZONE,4,8,5
India,Odisha,Balasore,"Kalidaspur, Balasore - OSPCB","18-11-2024 13:00:00",21.51161,86.89088,OZONE,13,156,156
India,Maharashtra,Pune,"Katraj Dairy, Pune - MPCB","18-11-2024 13:00:00",18.454450,73.854155,OZONE,2,159,67
India,Maharashtra,Pune,"Revenue Colony-Shivajinagar, Pune - IITM","18-11-2024 13:00:00",18.530085,73.849598,OZONE,2,76,24
India,Maharashtra,Sangli,"Vijay Nagar, Sangli - MPCB","18-11-2024 13:00:00"," 16.5038",74.3623,OZONE,104,126,116
India,Maharashtra,Solapur,"Dnyaneshwar Nagar, Solapur - MPCB","18-11-2024 13:00:00",17.6336264,75.9132495,OZONE,107,108,108
India,Maharashtra,Nashik,"Gangapur Road, Nashik - MPCB","18-11-2024 13:00:00",20.0073285,73.7762427,OZONE,9,80,47
India,Maharashtra,Pimpri-Chinchwad,"Park Street Wakad, Pimpri Chinchwad - MPCB","18-11-2024 13:00:00",18.59051,73.77946,OZONE,1,66,24
India,Punjab,Ludhiana,"Punjab Agricultural University, Ludhiana - PPCB","18-11-2024 13:00:00",30.9028,75.8086,OZONE,14,43,20
India,Maharashtra,"Navi Mumbai","Tondare-Taloja, Navi Mumbai - MPCB","18-11-2024 13:00:00",19.0630,73.1209,OZONE,3,91,33
India,Punjab,Patiala,"Model Town, Patiala - PPCB","18-11-2024 13:00:00",30.349388,76.366642,OZONE,14,69,29
India,Maharashtra,Pune,"Alandi, Pune - IITM","18-11-2024 13:00:00",18.675076,73.892743,OZONE,6,115,51
India,Rajasthan,Karauli,"Satyawati Vihar, Karauli - RSPCB","18-11-2024 13:00:00",26.506177,77.025989,OZONE,33,160,158
India,Rajasthan,Dholpur,"Raja Ganj, Dholpur - RSPCB","18-11-2024 13:00:00",26.699557,77.898881,OZONE,18,111,53
India,Rajasthan,Dungarpur,"Bhoiwada, Dungarpur - RSPCB","18-11-2024 13:00:00",23.837789,73.714926,OZONE,16,169,56
India,Rajasthan,Jaipur,"Police Commissionerate, Jaipur - RSPCB","18-11-2024 13:00:00",26.9164092,75.7994901,OZONE,24,34,31
India,Rajasthan,Jaipur,"RIICO Sitapura, Jaipur - RSPCB","18-11-2024 13:00:00",26.786682,75.827928,OZONE,13,84,40
India,TamilNadu,Chennai,"Kodungaiyur, Chennai - TNPCB","18-11-2024 13:00:00",13.1278,80.2642,OZONE,43,63,52
India,Rajasthan,Nagaur,"Karni Colony, Nagaur - RSPCB","18-11-2024 13:00:00",27.213494,73.734444,OZONE,25,97,58
India,Rajasthan,Jodhpur,"Jhalamand, Jodhpur - RSPCB","18-11-2024 13:00:00",26.215415,73.070156,OZONE,62,136,81
India,Rajasthan,Rajsamand,"Dhoinda, Rajsamand - RSPCB","18-11-2024 13:00:00",25.036360,73.883502,OZONE,48,315,112
India,TamilNadu,Chennai,"Alandur Bus Depot, Chennai - CPCB","18-11-2024 13:00:00",12.9099161,80.1076538,OZONE,2,29,12
India,Rajasthan,Dausa,"Khatikan Mohalla, Dausa - RSPCB","18-11-2024 13:00:00",26.895552,76.334753,OZONE,29,121,80
India,TamilNadu,Kanchipuram,"Kilambi, Kanchipuram - TNPCB","18-11-2024 13:00:00",12.864618,79.659968,OZONE,8,8,8
India,TamilNadu,Thoothukudi,"Meelavittan, Thoothukudi - TNPCB","18-11-2024 13:00:00","8.816428 ",78.099039,OZONE,17,72,36
India,Telangana,Hyderabad,"Ramachandrapuram, Hyderabad - TSPCB","18-11-2024 13:00:00",17.528544,78.286195,OZONE,60,80,69
India,TamilNadu,Tirupur,"Kumaran College, Tirupur - TNPCB","18-11-2024 13:00:00",11.0973603,77.3228673,OZONE,6,7,7
India,Uttar_Pradesh,Meerut,"Ganga Nagar, Meerut - UPPCB","18-11-2024 13:00:00",28.999264,77.7590354,OZONE,18,136,38
India,Uttar_Pradesh,Hapur,"Anand Vihar, Hapur - UPPCB","18-11-2024 13:00:00",28.725645,77.749675,OZONE,17,120,45
India,TamilNadu,Coimbatore,"SIDCO Kurichi, Coimbatore - TNPCB","18-11-2024 13:00:00",10.942451,76.978996,OZONE,3,38,19
India,Uttar_Pradesh,Baghpat,"Sardar Patel Inter College, Baghpat - UPPCB","18-11-2024 13:00:00",28.964949,77.278761,OZONE,7,74,24
India,Telangana,Hyderabad,"New Malakpet, Hyderabad - TSPCB","18-11-2024 13:00:00",17.37206,78.50864,OZONE,12,55,28
India,Uttar_Pradesh,Noida,"Sector - 62, Noida - IMD","18-11-2024 13:00:00",28.6245479,77.3577104,OZONE,36,96,43
India,West_Bengal,Howrah,"Ghusuri, Howrah - WBPCB","18-11-2024 13:00:00",22.611968,88.347422,OZONE,9,27,16
India,West_Bengal,Howrah,"Padmapukur, Howrah - WBPCB","18-11-2024 13:00:00",22.5687319,88.2797276,OZONE,11,60,25
India,Uttar_Pradesh,Vrindavan,"Omex Eternity, Vrindavan - UPPCB","18-11-2024 13:00:00",27.5714090,77.6557570,OZONE,12,14,14
India,West_Bengal,Howrah,"Belur Math, Howrah - WBPCB","18-11-2024 13:00:00",22.629801,88.352017,OZONE,9,111,38
India,West_Bengal,Durgapur,"PCBL Residential Complex, Durgapur - WBPCB","18-11-2024 13:00:00",23.5087640,87.3544400,OZONE,2,73,38
India,Uttar_Pradesh,Meerut,"Jai Bhim Nagar, Meerut - UPPCB","18-11-2024 13:00:00",28.9535882,77.7622941,OZONE,15,159,43
India,West_Bengal,Asansol,"Asansol Court Area, Asansol - WBPCB","18-11-2024 13:00:00",23.685297,86.945968,OZONE,16,82,44
India,Uttar_Pradesh,Prayagraj,"Nagar Nigam, Prayagraj - UPPCB","18-11-2024 13:00:00","25.44919916 ","81.82735986 ",OZONE,11,11,11
India,Uttar_Pradesh,Muzaffarnagar,"New Mandi, Muzaffarnagar - UPPCB","18-11-2024 13:00:00",29.4723508,77.7194031,OZONE,2,15,8
India,West_Bengal,Kolkata,"Ballygunge, Kolkata - WBPCB","18-11-2024 13:00:00",22.5367507,88.3638022,OZONE,13,23,17
India,West_Bengal,Kolkata,"Victoria, Kolkata - WBPCB","18-11-2024 13:00:00",22.5448082,88.3403691,OZONE,6,76,30
